[
  {
    "id": "0201361",
    "name": "Експозитура Карпош",
    "address": "Булевар Партизански Одреди 15",
    "city": "Скопје",
    "coordinates": {
      "lat": 42.0045,
      "lon": 21.4090
    },
    "workingHours": {
      "weekdays": "08:00-17:00",
      "saturday": "09:00-14:00",
      "sunday": "Затворено"
    },
    "phone": "+389-2-3200-201",
    "ATM": [
      {
        "id": "ATM-003-1",
        "location": "Пред експозитура",
        "deposit": true
      }
    ]
  },
  {
    "id": "0201461",
    "name": "Експозитура Аеродром",
    "address": "Булевар Јане Сандански 82",
    "city": "Скопје",
    "coordinates": {
      "lat": 41.9875,
      "lon": 21.4656
    },
    "workingHours": {
      "weekdays": "08:00-16:30",
      "saturday": "09:00-13:00",
      "sunday": "Затворено"
    },
    "phone": "+389-2-3200-202",
    "ATM": [
      {
        "id": "ATM-004-1",
        "location": "Внатре",
        "deposit": true
      },
      {
        "id": "ATM-004-2",
        "location": "Надворешен",
        "deposit": false
      }
    ]
  },
  {
    "id": "0201561",
    "name": "Експозитура Битола",
    "address": "Широк Сокак 12",
    "city": "Битола",
    "coordinates": {
      "lat": 41.0319,
      "lon": 21.3347
    },
    "workingHours": {
      "weekdays": "08:00-16:00",
      "saturday": "09:00-13:00",
      "sunday": "Затворено"
    },
    "phone": "+389-47-320-203",
    "ATM": [
      {
        "id": "ATM-005-1",
        "location": "Пред влез",
        "deposit": true
      }
    ]
  },
  {
    "id": "0201661",
    "name": "Експозитура Охрид",
    "address": "Булевар Туристичка 45",
    "city": "Охрид",
    "coordinates": {
      "lat": 41.1172,
      "lon": 20.8016
    },
    "workingHours": {
      "weekdays": "08:00-16:00",
      "saturday": "09:00-13:00",
      "sunday": "Затворено"
    },
    "phone": "+389-46-320-204",
    "ATM": [
      {
        "id": "ATM-006-1",
        "location": "Надворешен",
        "deposit": false
      }
    ]
  },
  {
    "id": "0201761",
    "name": "Експозитура Куманово",
    "address": "Плоштад Маршал Тито 3",
    "city": "Куманово",
    "coordinates": {
      "lat": 42.1322,
      "lon": 21.7144
    },
    "workingHours": {
      "weekdays": "08:00-16:00",
      "saturday": "09:00-13:00",
      "sunday": "Затворено"
    },
    "phone": "+389-31-320-205",
    "ATM": [
      {
        "id": "ATM-007-1",
        "location": "Пред експозитура",
        "deposit": true
      }
    ]
  },
  {
    "id": "0201861",
    "name": "Експозитура Тетово",
    "address": "Илинденска 25",
    "city": "Тетово",
    "coordinates": {
      "lat": 42.0097,
      "lon": 20.9716
    },
    "workingHours": {
      "weekdays": "08:00-16:00",
      "saturday": "09:00-13:00",
      "sunday": "Затворено"
    },
    "phone": "+389-44-320-206",
    "ATM": [
      {
        "id": "ATM-008-1",
        "location": "Внатрешен",
        "deposit": false
      }
    ]
  },
  {
    "id": "0201961",
    "name": "Експозитура Прилеп",
    "address": "Маршал Тито 67",
    "city": "Прилеп",
    "coordinates": {
      "lat": 41.3454,
      "lon": 21.5550
    },
    "workingHours": {
      "weekdays": "08:00-16:00",
      "saturday": "09:00-13:00",
      "sunday": "Затворено"
    },
    "phone": "+389-48-320-207",
    "ATM": [
      {
        "id": "ATM-009-1",
        "location": "Пред влез",
        "deposit": true
      }
    ]
  },
  {
    "id": "0211061",
    "name": "Експозитура Штип",
    "address": "Гоце Делчев 10",
    "city": "Штип",
    "coordinates": {
      "lat": 41.7450,
      "lon": 22.1950
    },
    "workingHours": {
      "weekdays": "08:00-16:00",
      "saturday": "09:00-13:00",
      "sunday": "Затворено"
    },
    "phone": "+389-32-320-208",
    "ATM": [
      {
        "id": "ATM-010-1",
        "location": "Надворешен",
        "deposit": false
      }
    ]
  },
  {
    "id": "0211161",
    "name": "Експозитура Кавадарци",
    "address": "7 Септември 14",
    "city": "Кавадарци",
    "coordinates": {
      "lat": 41.4333,
      "lon": 22.0167
    },
    "workingHours": {
      "weekdays": "08:00-16:00",
      "saturday": "09:00-13:00",
      "sunday": "Затворено"
    },
    "phone": "+389-43-320-209",
    "ATM": [
      {
        "id": "ATM-011-1",
        "location": "Пред експозитура",
        "deposit": true
      }
    ]
  },
  {
    "id": "0211261",
    "name": "Експозитура Велес",
    "address": "8 Септември 22",
    "city": "Велес",
    "coordinates": {
      "lat": 41.7167,
      "lon": 21.7833
    },
    "workingHours": {
      "weekdays": "08:00-16:00",
      "saturday": "09:00-13:00",
      "sunday": "Затворено"
    },
    "phone": "+389-43-320-210",
    "ATM": [
      {
        "id": "ATM-012-1",
        "location": "Внатрешен",
        "deposit": true
      }
    ]
  },
  {
    "id": "0211361",
    "name": "Експозитура Струмица",
    "address": "Ленинова 5",
    "city": "Струмица",
    "coordinates": {
      "lat": 41.4378,
      "lon": 22.6431
    },
    "workingHours": {
      "weekdays": "08:00-16:00",
      "saturday": "09:00-13:00",
      "sunday": "Затворено"
    },
    "phone": "+389-34-320-211",
    "ATM": [
      {
        "id": "ATM-013-1",
        "location": "Надворешен",
        "deposit": false
      }
    ]
  },
  {
    "id": "0211461",
    "name": "Експозитура Гевгелија",
    "address": "Маршал Тито 44",
    "city": "Гевгелија",
    "coordinates": {
      "lat": 41.1417,
      "lon": 22.5025
    },
    "workingHours": {
      "weekdays": "08:00-16:00",
      "saturday": "09:00-13:00",
      "sunday": "Затворено"
    },
    "phone": "+389-34-320-212",
    "ATM": [
      {
        "id": "ATM-014-1",
        "location": "Пред експозитура",
        "deposit": true
      }
    ]
  },
  {
    "id": "0211561",
    "name": "Експозитура Кочани",
    "address": "Партизанска 18",
    "city": "Кочани",
    "coordinates": {
      "lat": 41.9167,
      "lon": 22.4167
    },
    "workingHours": {
      "weekdays": "08:00-16:00",
      "saturday": "09:00-13:00",
      "sunday": "Затворено"
    },
    "phone": "+389-33-320-213",
    "ATM": [
      {
        "id": "ATM-015-1",
        "location": "Внатрешен",
        "deposit": true
      }
    ]
  },
  {
    "id": "0211661",
    "name": "Експозитура Радовиш",
    "address": "Илинденска 30",
    "city": "Радовиш",
    "coordinates": {
      "lat": 41.6383,
      "lon": 22.4647
    },
    "workingHours": {
      "weekdays": "08:00-16:00",
      "saturday": "09:00-13:00",
      "sunday": "Затворено"
    },
    "phone": "+389-32-320-214",
    "ATM": [
      {
        "id": "ATM-016-1",
        "location": "Надворешен",
        "deposit": false
      }
    ]
  },
  {
    "id": "0211761",
    "name": "Експозитура Кичево",
    "address": "Маршал Тито 9",
    "city": "Кичево",
    "coordinates": {
      "lat": 41.5136,
      "lon": 20.9586
    },
    "workingHours": {
      "weekdays": "08:00-16:00",
      "saturday": "09:00-13:00",
      "sunday": "Затворено"
    },
    "phone": "+389-45-320-215",
    "ATM": [
      {
        "id": "ATM-017-1",
        "location": "Пред експозитура",
        "deposit": true
      }
    ]
  },
  {
    "id": "0211861",
    "name": "Експозитура Струга",
    "address": "Пролетерски Бригади 11",
    "city": "Струга",
    "coordinates": {
      "lat": 41.1770,
      "lon": 20.6778
    },
    "workingHours": {
      "weekdays": "08:00-16:00",
      "saturday": "09:00-13:00",
      "sunday": "Затворено"
    },
    "phone": "+389-46-320-216",
    "ATM": [
      {
        "id": "ATM-018-1",
        "location": "Надворешен",
        "deposit": false
      }
    ]
  },
  {
    "id": "0211961",
    "name": "Експозитура Дебар",
    "address": "8 Септември 6",
    "city": "Дебар",
    "coordinates": {
      "lat": 41.5244,
      "lon": 20.5242
    },
    "workingHours": {
      "weekdays": "08:00-16:00",
      "saturday": "09:00-13:00",
      "sunday": "Затворено"
    },
    "phone": "+389-46-320-217",
    "ATM": [
      {
        "id": "ATM-019-1",
        "location": "Пред влез",
        "deposit": true
      }
    ]
  },
  {
    "id": "0221061",
    "name": "Експозитура Неготино",
    "address": "Маршал Тито 21",
    "city": "Неготино",
    "coordinates": {
      "lat": 41.4839,
      "lon": 22.0939
    },
    "workingHours": {
      "weekdays": "08:00-16:00",
      "saturday": "09:00-13:00",
      "sunday": "Затворено"
    },
    "phone": "+389-43-320-218",
    "ATM": [
      {
        "id": "ATM-020-1",
        "location": "Внатрешен",
        "deposit": true
      }
    ]
  },
  {
    "id": "0221161",
    "name": "Експозитура Крушево",
    "address": "Илинденска 2",
    "city": "Крушево",
    "coordinates": {
      "lat": 41.3694,
      "lon": 21.2486
    },
    "workingHours": {
      "weekdays": "08:00-15:30",
      "saturday": "09:00-12:00",
      "sunday": "Затворено"
    },
    "phone": "+389-48-320-219",
    "ATM": [
      {
        "id": "ATM-021-1",
        "location": "Пред експозитура",
        "deposit": false
      }
    ]
  },
  {
    "id": "0221261",
    "name": "Експозитура Делчево",
    "address": "Маршал Тито 33",
    "city": "Делчево",
    "coordinates": {
      "lat": 41.9667,
      "lon": 22.7667
    },
    "workingHours": {
      "weekdays": "08:00-15:30",
      "saturday": "09:00-12:00",
      "sunday": "Затворено"
    },
    "phone": "+389-33-320-220",
    "ATM": [
      {
        "id": "ATM-022-1",
        "location": "Внатрешен",
        "deposit": true
      }
    ]
  }
]